{
  "positions": [
    {
      "number": 1,
      "title": "서진헬스",
      "address": "부산광역시 사하구 감천로 52  (감천동,3층)",
      "Lat": 35.09028013,
      "Lng": 128.9982105
    },
    {
      "number": 2,
      "title": "굿모닝헬스",
      "address": "부산광역시 사하구 낙동대로516번길 56  (하단동,캠퍼스프라자 6층)",
      "Lat": 35.11339013,
      "Lng": 128.9663105
    },
    {
      "number": 3,
      "title": "제이엘피트니스 다대점",
      "address": "부산광역시 사하구 다대로 473 (다대동,맘모스프라자 4층)",
      "Lat": 35.06151015,
      "Lng": 128.9769046
    },
    {
      "number": 4,
      "title": "두손헬스",
      "address": "부산광역시 사하구 하신중앙로 180, 상가동 11호 (신평동,신익강변타운)",
      "Lat": 35.09480012,
      "Lng": 128.9631604
    },
    {
      "number": 5,
      "title": "딸라소 휘트니스센타",
      "address": "부산광역시 사하구 하신중앙로 299  (하단동,청하빌딩  3층)",
      "Lat": 35.10402016,
      "Lng": 128.9631005
    },
    {
      "number": 6,
      "title": "드림헬스",
      "address": "부산광역시 사하구 낙동대로 348  (당리동,3층)",
      "Lat": 35.10133015,
      "Lng": 128.9795101
    },
    {
      "number": 7,
      "title": "하파휘트니스",
      "address": "부산광역시 사하구 낙동대로 474  (하단동,5,6층)",
      "Lat": 35.10712013,
      "Lng": 128.9681905
    },
    {
      "number": 8,
      "title": "지존스포츠 헬스클럽",
      "address": "부산광역시 사하구 다대로 207  (장림동,패션카운티 지존 3층)",
      "Lat": 35.08365146,
      "Lng": 128.9776825
    },
    {
      "number": 9,
      "title": "고 피트니스 괴정",
      "address": "부산광역시 사하구 사하로 200, 7,8층 (괴정동, 형지빌딩)",
      "Lat": 35.09957124,
      "Lng": 128.9936957
    },
    {
      "number": 10,
      "title": "P&C운동센터",
      "address": "부산광역시 사하구 낙동대로 432 (당리동)",
      "Lat": 35.10456049,
      "Lng": 128.9714046
    },
    {
      "number": 11,
      "title": "PETER GYM",
      "address": "부산광역시 사하구 장평로 307 (신평동)",
      "Lat": 35.09345013,
      "Lng": 128.9735915
    },
    {
      "number": 12,
      "title": "바디피플",
      "address": "부산광역시 사하구 장평로 441, 5층 (괴정동)",
      "Lat": 35.09754156,
      "Lng": 128.9861205
    },
    {
      "number": 13,
      "title": "팀원짐",
      "address": "부산광역시 사하구 낙동대로216번길 3, 102호 (괴정동, 신화프라자)",
      "Lat": 35.10052155,
      "Lng": 128.9927015
    },
    {
      "number": 14,
      "title": "젠틀짐",
      "address": "부산광역시 사하구 다송로 71, 지하1층 (다대동)",
      "Lat": 35.06211047,
      "Lng": 128.9840905
    },
    {
      "number": 15,
      "title": "GOTO 다대포점",
      "address": "부산광역시 사하구 다대로 571, 3층 (다대동)",
      "Lat": 35.05535412,
      "Lng": 128.9706812
    },
    {
      "number": 16,
      "title": "아이콘 휘트니스",
      "address": "부산광역시 사하구 낙동남로 1422, 6~7층 (하단동, 청경빌딩)",
      "Lat": 35.10590012,
      "Lng": 128.9672006
    },
    {
      "number": 17,
      "title": "주식회사 스마트짐다대포점",
      "address": "부산광역시 사하구 다대낙조2길 85, B1층 1호 (다대동)",
      "Lat": 35.05287125,
      "Lng": 128.9614935
    },
    {
      "number": 18,
      "title": "리얼바디기구필라테스&PT",
      "address": "부산광역시 사하구 다송로72번길 55, 5층 (다대동)",
      "Lat": 35.06016561,
      "Lng": 128.9813001
    },
    {
      "number": 19,
      "title": "더원",
      "address": "부산광역시 사하구 하신번영로 381-4, 2층 (하단동, 와코빌딩)",
      "Lat": 35.11502124,
      "Lng": 128.9598005
    },
    {
      "number": 20,
      "title": "스카이짐 피트니스 괴정점",
      "address": "부산광역시 사하구 장평로 440, 5층 (괴정동)",
      "Lat": 35.09748129,
      "Lng": 128.9865715
    },
    {
      "number": 21,
      "title": "트레이닝스튜디오 바름",
      "address": "부산광역시 사하구 다대로 381, 3층 (다대동)",
      "Lat": 35.06872049,
      "Lng": 128.978581
    },
    {
      "number": 22,
      "title": "A토탈피트니스",
      "address": "부산광역시 사하구 사하로 182, 304,305,306,307호 (괴정동)",
      "Lat": 35.09795562,
      "Lng": 128.9944513
    },
    {
      "number": 23,
      "title": "GOTO 장림점",
      "address": "부산광역시 사하구 장림번영로 50, 202호 (장림동, 지원시티파크아파트)",
      "Lat": 35.08038129,
      "Lng": 128.9708005
    },
    {
      "number": 24,
      "title": "리본휘트니스",
      "address": "부산광역시 사하구 다대낙조2길 3, 201호 (다대동)",
      "Lat": 35.05038187,
      "Lng": 128.9658802
    },
    {
      "number": 25,
      "title": "890 휘트니스",
      "address": "부산광역시 사하구 다대로 617, 지하동 1호 (다대동, 다대자유아파트)",
      "Lat": 35.05111126,
      "Lng": 128.9712512
    },
    {
      "number": 26,
      "title": "다짐휘트니스",
      "address": "부산광역시 사하구 서포로30번길 3, 3층 (구평동)",
      "Lat": 35.08269289,
      "Lng": 128.986324
    },
    {
      "number": 27,
      "title": "레드피트니스",
      "address": "부산광역시 사하구 제석로 89, 3,4층 (당리동)",
      "Lat": 35.1078259,
      "Lng": 128.9768811
    },
    {
      "number": 28,
      "title": "그린피트니스",
      "address": "부산광역시 사하구 하신번영로201번길 20, 3,4층 (하단동)",
      "Lat": 35.09921238,
      "Lng": 128.9571612
    },
    {
      "number": 29,
      "title": "올짐 휘트니스 대티점",
      "address": "부산광역시 사하구 낙동대로 137 (괴정동)",
      "Lat": 35.10301005,
      "Lng": 129.0008112
    },
    {
      "number": 30,
      "title": "24시 사하 헬스 P.T 네오피트니스",
      "address": "부산광역시 사하구 하신번영로201번길 10, 지하1층 (하단동, 강변프라자빌라)",
      "Lat": 35.09929049,
      "Lng": 128.9577502
    },
    {
      "number": 31,
      "title": "더 머슬짐",
      "address": "부산광역시 사하구 장평로 307, 4층 (신평동)",
      "Lat": 35.09345856,
      "Lng": 128.9735712
    },
    {
      "number": 32,
      "title": "블로썸 핏",
      "address": "부산광역시 사하구 낙동대로 491, 정석빌딩 2층 (하단동)",
      "Lat": 35.10816113,
      "Lng": 128.9667805
    },
    {
      "number": 33,
      "title": "헬스보이짐 하단점",
      "address": "부산광역시 사하구 낙동남로 1403, 2층 (하단동)",
      "Lat": 35.10658236,
      "Lng": 128.9652423
    },
    {
      "number": 34,
      "title": "제로핏",
      "address": "부산광역시 사하구 낙동대로 366, 2층 (당리동)",
      "Lat": 35.10205008,
      "Lng": 128.9780713
    },
    {
      "number": 35,
      "title": "블루밍PT",
      "address": "부산광역시 사하구 다대낙조1길 11, 4층 (다대동)",
      "Lat": 35.04956149,
      "Lng": 128.9653825
    },
    {
      "number": 36,
      "title": "최귀성프로짐",
      "address": "부산광역시 사하구 다대로 299, 3층 (장림동)",
      "Lat": 35.07567598,
      "Lng": 128.9772521
    },
    {
      "number": 37,
      "title": "네오피트니스 다대점",
      "address": "부산광역시 사하구 다대로 613, 502호 (다대동)",
      "Lat": 35.05188479,
      "Lng": 128.9711902
    },
    {
      "number": 38,
      "title": "라인피티",
      "address": "부산광역시 사하구 감천로 46, 3층 (감천동)",
      "Lat": 35.0906579,
      "Lng": 128.9975545
    },
    {
      "number": 39,
      "title": "바디팩토리",
      "address": "부산광역시 사하구 괴정로 99, 3층 (당리동)",
      "Lat": 35.10231002,
      "Lng": 128.9749202
    },
    {
      "number": 39,
      "title": "위더스짐",
      "address": "부산광역시 사하구 낙동대로 519, 지하1층 (하단동)",
      "Lat": 35.1103312,
      "Lng": 128.965394
    },
    {
      "number": 40,
      "title": "강변체육관",
      "address": "부산광역시 사하구 낙동대로519번길 8, 지하1층 (하단동)",
      "Lat": 35.11039123,
      "Lng": 128.9649785
    },
    {
      "number": 41,
      "title": "더케이피트니스 사하",
      "address": "부산광역시 사하구 을숙도대로 610, 롯데마트 4층 (장림동)",
      "Lat": 35.08480015,
      "Lng": 128.9719702
    },
    {
      "number": 42,
      "title": "타임라인 피트니스",
      "address": "부산광역시 사하구 다송로84번길 52, 2, 3층 (다대동)",
      "Lat": 35.05978108,
      "Lng": 128.9816548
    }
  ]
}